address_ch,address_en,latitude,longitude
Düsseldorf    Düsseldorf    Düsseldorf    Nordrhein-Westfalen    Germany,"Düsseldorf, Germany",51.2277411,6.7734556
Duisburg    Duisburg    Düsseldorf    Nordrhein-Westfalen    Germany,"Duisburg, Germany",51.4344079,6.762329299999999
Essen    Essen    Düsseldorf    Nordrhein-Westfalen    Germany,"Essen, Germany",51.4556432,7.0115552
Krefeld    Krefeld    Düsseldorf    Nordrhein-Westfalen    Germany,"Krefeld, Germany",51.3387609,6.5853417
Mönchengladbach    Mönchengladbach    Düsseldorf    Nordrhein-Westfalen    Germany,"Mönchengladbach, Germany",51.1804572,6.4428041
Mülheim An Der Ruhr    Mülheim An Der Ruhr    Düsseldorf    Nordrhein-Westfalen    Germany,"Mülheim, Germany",51.4185682,6.884522599999999
Oberhausen    Oberhausen    Düsseldorf    Nordrhein-Westfalen    Germany,"Oberhausen, Germany",51.4963341,6.863776499999999
Remscheid    Remscheid    Düsseldorf    Nordrhein-Westfalen    Germany,"Remscheid, Germany",51.1787418,7.189696199999998
Solingen    Solingen    Düsseldorf    Nordrhein-Westfalen    Germany,"Solingen, Germany",51.17020720000001,7.0831408
Wuppertal    Wuppertal    Düsseldorf    Nordrhein-Westfalen    Germany,"Wuppertal, Germany",51.2562128,7.150763599999999
Bedburg-Hau    Kleve    Düsseldorf    Nordrhein-Westfalen    Germany,"47551 Bedburg-Hau, Germany",51.7605053,6.188306499999999
Emmerich Am Rhein    Kleve    Düsseldorf    Nordrhein-Westfalen    Germany,"46446 Emmerich, Germany",51.8395929,6.251730299999999
Geldern    Kleve    Düsseldorf    Nordrhein-Westfalen    Germany,"47608 Geldern, Germany",51.5204439,6.3257902
Goch    Kleve    Düsseldorf    Nordrhein-Westfalen    Germany,"Goch, Germany",51.679984,6.156552200000001
Issum    Kleve    Düsseldorf    Nordrhein-Westfalen    Germany,"47661 Issum, Germany",51.5381217,6.4236944
Kalkar    Kleve    Düsseldorf    Nordrhein-Westfalen    Germany,"Kalkar, Germany",51.737317,6.2908256
Kerken    Kleve    Düsseldorf    Nordrhein-Westfalen    Germany,"Kerken, Germany",51.4554593,6.3730232
Kevelaer    Kleve    Düsseldorf    Nordrhein-Westfalen    Germany,"Kevelaer, Germany",51.581349,6.245757999999999
Kleve    Kleve    Düsseldorf    Nordrhein-Westfalen    Germany,"Kleve, Germany",51.78672599999999,6.12954
Kranenburg    Kleve    Düsseldorf    Nordrhein-Westfalen    Germany,"47559 Kranenburg, Germany",51.7864824,6.0098603
Rees    Kleve    Düsseldorf    Nordrhein-Westfalen    Germany,"46459 Rees, Germany",51.7670727,6.4015065
Rheurdt    Kleve    Düsseldorf    Nordrhein-Westfalen    Germany,"47509 Rheurdt, Germany",51.4663163,6.4715038
Straelen    Kleve    Düsseldorf    Nordrhein-Westfalen    Germany,"Straelen, Germany",51.44151309999999,6.2656638
Uedem    Kleve    Düsseldorf    Nordrhein-Westfalen    Germany,"47589 Uedem, Germany",51.665657,6.2735596
Wachtendonk    Kleve    Düsseldorf    Nordrhein-Westfalen    Germany,"47669 Wachtendonk, Germany",51.4082188,6.3399027
Weeze    Kleve    Düsseldorf    Nordrhein-Westfalen    Germany,"Weeze, Germany",51.6266679,6.1968442
Erkrath    Mettmann    Düsseldorf    Nordrhein-Westfalen    Germany,"40699 Erkrath, Germany",51.2213125,6.9073473
Haan    Mettmann    Düsseldorf    Nordrhein-Westfalen    Germany,"Haan, Germany",51.1923262,7.0065575
Heiligenhaus    Mettmann    Düsseldorf    Nordrhein-Westfalen    Germany,"Heiligenhaus, Germany",51.3273148,6.965595899999999
Hilden    Mettmann    Düsseldorf    Nordrhein-Westfalen    Germany,"Hilden, Germany",51.16785669999999,6.9352253
Langenfeld (Rheinland)    Mettmann    Düsseldorf    Nordrhein-Westfalen    Germany,"Langenfeld, Germany",51.1191898,6.951266299999999
Mettmann    Mettmann    Düsseldorf    Nordrhein-Westfalen    Germany,"Mettmann, Germany",51.2506663,6.9740265
Monheim Am Rhein    Mettmann    Düsseldorf    Nordrhein-Westfalen    Germany,"Monheim am Rhein, Germany",51.0891756,6.894575300000001
Ratingen    Mettmann    Düsseldorf    Nordrhein-Westfalen    Germany,"Ratingen, Germany",51.2964148,6.8401844
Velbert    Mettmann    Düsseldorf    Nordrhein-Westfalen    Germany,"Velbert, Germany",51.33707030000001,7.0426775
Wülfrath    Mettmann    Düsseldorf    Nordrhein-Westfalen    Germany,"Wülfrath, Germany",51.28028399999999,7.034960799999999
Dormagen    Rhein-Kreis Neuss    Düsseldorf    Nordrhein-Westfalen    Germany,"Dormagen, Germany",51.09368509999999,6.828911199999999
Grevenbroich    Rhein-Kreis Neuss    Düsseldorf    Nordrhein-Westfalen    Germany,"Grevenbroich, Germany",51.0902094,6.585863000000001
Jüchen    Rhein-Kreis Neuss    Düsseldorf    Nordrhein-Westfalen    Germany,"41363 Jüchen, Germany",51.10074909999999,6.5038109
Kaarst    Rhein-Kreis Neuss    Düsseldorf    Nordrhein-Westfalen    Germany,"41564 Kaarst, Germany",51.2241281,6.6172049
Korschenbroich    Rhein-Kreis Neuss    Düsseldorf    Nordrhein-Westfalen    Germany,"Korschenbroich, Germany",51.1894661,6.514404799999999
Meerbusch    Rhein-Kreis Neuss    Düsseldorf    Nordrhein-Westfalen    Germany,"Meerbusch, Germany",51.2503512,6.690717299999999
Neuss    Rhein-Kreis Neuss    Düsseldorf    Nordrhein-Westfalen    Germany,"Neuss, Germany",51.2041968,6.6879511
Rommerskirchen    Rhein-Kreis Neuss    Düsseldorf    Nordrhein-Westfalen    Germany,"Rommerskirchen, Germany",51.0349879,6.6894908
Brüggen    Viersen    Düsseldorf    Nordrhein-Westfalen    Germany,"Brüggen, Germany",51.2442461,6.1818561
Grefrath    Viersen    Düsseldorf    Nordrhein-Westfalen    Germany,"47929 Grefrath, Germany",51.3387192,6.3410765
Kempen    Viersen    Düsseldorf    Nordrhein-Westfalen    Germany,"47906 Kempen, Germany",51.36499420000001,6.4205309
Nettetal    Viersen    Düsseldorf    Nordrhein-Westfalen    Germany,"41334 Nettetal, Germany",51.3262794,6.272100099999999
Niederkrüchten    Viersen    Düsseldorf    Nordrhein-Westfalen    Germany,"41372 Niederkrüchten, Germany",51.1988311,6.2192454
Schwalmtal    Viersen    Düsseldorf    Nordrhein-Westfalen    Germany,"Schwalmtal, Germany",51.2121378,6.276649
Tönisvorst    Viersen    Düsseldorf    Nordrhein-Westfalen    Germany,"47918 Tönisvorst, Germany",51.3274683,6.443845199999999
Viersen    Viersen    Düsseldorf    Nordrhein-Westfalen    Germany,"Viersen, Germany",51.2554987,6.3965235
Willich    Viersen    Düsseldorf    Nordrhein-Westfalen    Germany,"47877 Willich, Germany",51.2654601,6.544265900000001
Alpen    Wesel    Düsseldorf    Nordrhein-Westfalen    Germany,"Alpen, Germany",51.5755955,6.5120144
Dinslaken    Wesel    Düsseldorf    Nordrhein-Westfalen    Germany,"Dinslaken, Germany",51.5674264,6.747534
Hamminkeln    Wesel    Düsseldorf    Nordrhein-Westfalen    Germany,"Hamminkeln, Germany",51.7328603,6.595489199999999
Hünxe    Wesel    Düsseldorf    Nordrhein-Westfalen    Germany,"Hünxe, Germany",51.64111990000001,6.7676165
Kamp-Lintfort    Wesel    Düsseldorf    Nordrhein-Westfalen    Germany,"Kamp-Lintfort, Germany",51.4957751,6.532127699999999
Moers    Wesel    Düsseldorf    Nordrhein-Westfalen    Germany,"Moers, Germany",51.4516041,6.640814799999999
Neukirchen-Vluyn    Wesel    Düsseldorf    Nordrhein-Westfalen    Germany,"Neukirchen-Vluyn, Germany",51.4423827,6.5537259
Rheinberg    Wesel    Düsseldorf    Nordrhein-Westfalen    Germany,"Rheinberg, Germany",51.5460798,6.5899097
Schermbeck    Wesel    Düsseldorf    Nordrhein-Westfalen    Germany,"Schermbeck, Germany",51.6935919,6.875309199999999
Sonsbeck    Wesel    Düsseldorf    Nordrhein-Westfalen    Germany,"47665 Sonsbeck, Germany",51.6089018,6.3762723
Voerde (Niederrhein)    Wesel    Düsseldorf    Nordrhein-Westfalen    Germany,"Voerde, Germany",51.6005212,6.6544111
Wesel    Wesel    Düsseldorf    Nordrhein-Westfalen    Germany,"Wesel, Germany",51.6643079,6.6295679
Xanten    Wesel    Düsseldorf    Nordrhein-Westfalen    Germany,"46509 Xanten, Germany",51.65710809999999,6.4486504
Bonn    Bonn    Köln    Nordrhein-Westfalen    Germany,"Bonn, Germany",50.73743,7.0982068
Köln    Köln    Köln    Nordrhein-Westfalen    Germany,"Cologne, Germany",50.937531,6.9602786
Leverkusen    Leverkusen    Köln    Nordrhein-Westfalen    Germany,"Leverkusen, Germany",51.04592479999999,7.0192196
Aldenhoven    Düren    Köln    Nordrhein-Westfalen    Germany,"Aldenhoven, Germany",50.89488240000001,6.287122099999999
Düren    Düren    Köln    Nordrhein-Westfalen    Germany,"Düren, Germany",50.8029513,6.481105
Heimbach    Düren    Köln    Nordrhein-Westfalen    Germany,"Heimbach, Germany",50.6333925,6.4807774
Hürtgenwald    Düren    Köln    Nordrhein-Westfalen    Germany,"Hürtgenwald, Germany",50.7108822,6.3785269
Inden    Düren    Köln    Nordrhein-Westfalen    Germany,"Inden, Germany",50.84665649999999,6.3578272
Jülich    Düren    Köln    Nordrhein-Westfalen    Germany,"52428 Jülich, Germany",50.9224226,6.3639119
Kreuzau    Düren    Köln    Nordrhein-Westfalen    Germany,"52372 Kreuzau, Germany",50.7458197,6.4894836
Langerwehe    Düren    Köln    Nordrhein-Westfalen    Germany,"52379 Langerwehe, Germany",50.81580109999999,6.362345299999999
Linnich    Düren    Köln    Nordrhein-Westfalen    Germany,"Linnich, Germany",50.977773,6.268930999999999
Merzenich    Düren    Köln    Nordrhein-Westfalen    Germany,"Merzenich, Germany",50.8284481,6.524548299999999
Nideggen    Düren    Köln    Nordrhein-Westfalen    Germany,"52385 Nideggen, Germany",50.6922556,6.4843172
Niederzier    Düren    Köln    Nordrhein-Westfalen    Germany,"52382 Niederzier, Germany",50.8766134,6.470278
Nörvenich    Düren    Köln    Nordrhein-Westfalen    Germany,"52388 Nörvenich, Germany",50.8066888,6.6402649
Titz    Düren    Köln    Nordrhein-Westfalen    Germany,"52445 Titz, Germany",51.0055695,6.4269683
Vettweiß    Düren    Köln    Nordrhein-Westfalen    Germany,"52391 Vettweiß, Germany",50.7392703,6.597852199999999
Bedburg    Rhein-Erft-Kreis    Köln    Nordrhein-Westfalen    Germany,"50181 Bedburg, Germany",50.989348,6.5711524
Bergheim    Rhein-Erft-Kreis    Köln    Nordrhein-Westfalen    Germany,"Bergheim, Germany",50.9451945,6.6555022
Brühl    Rhein-Erft-Kreis    Köln    Nordrhein-Westfalen    Germany,"50321 Brühl, Germany",50.8267554,6.8987865
Elsdorf    Rhein-Erft-Kreis    Köln    Nordrhein-Westfalen    Germany,"Elsdorf, Germany",50.9392493,6.5635008
Erftstadt    Rhein-Erft-Kreis    Köln    Nordrhein-Westfalen    Germany,"50374 Erftstadt, Germany",50.7948075,6.7774607
Frechen    Rhein-Erft-Kreis    Köln    Nordrhein-Westfalen    Germany,"Frechen, Germany",50.9122488,6.815995699999999
Hürth    Rhein-Erft-Kreis    Köln    Nordrhein-Westfalen    Germany,"Hürth, Germany",50.8805932,6.8881425
Kerpen    Rhein-Erft-Kreis    Köln    Nordrhein-Westfalen    Germany,"Kerpen, Germany",50.8747592,6.6883728
Pulheim    Rhein-Erft-Kreis    Köln    Nordrhein-Westfalen    Germany,"Pulheim, Germany",50.9995815,6.807685299999999
Wesseling    Rhein-Erft-Kreis    Köln    Nordrhein-Westfalen    Germany,"50389 Wesseling, Germany",50.8255624,6.9725385
Bad Münstereifel    Euskirchen    Köln    Nordrhein-Westfalen    Germany,"53902 Bad Münstereifel, Germany",50.5576854,6.7612985
Blankenheim    Euskirchen    Köln    Nordrhein-Westfalen    Germany,"53945 Blankenheim, Germany",50.4393649,6.64554
Dahlem    Euskirchen    Köln    Nordrhein-Westfalen    Germany,"53949 Dahlem, Germany",50.3863976,6.546403199999999
Euskirchen    Euskirchen    Köln    Nordrhein-Westfalen    Germany,"Euskirchen, Germany",50.6574392,6.7899945
Hellenthal    Euskirchen    Köln    Nordrhein-Westfalen    Germany,"53940 Hellenthal, Germany",50.4909978,6.435392999999999
Kall    Euskirchen    Köln    Nordrhein-Westfalen    Germany,"Kall, Germany",50.5418388,6.5625303
Mechernich    Euskirchen    Köln    Nordrhein-Westfalen    Germany,"Mechernich, Germany",50.5917044,6.653072
Nettersheim    Euskirchen    Köln    Nordrhein-Westfalen    Germany,"53947 Nettersheim, Germany",50.4918882,6.6279607
Schleiden    Euskirchen    Köln    Nordrhein-Westfalen    Germany,"53937 Schleiden, Germany",50.5289601,6.476920499999999
Weilerswist    Euskirchen    Köln    Nordrhein-Westfalen    Germany,"Weilerswist, Germany",50.7530347,6.8386024
Zülpich    Euskirchen    Köln    Nordrhein-Westfalen    Germany,"Zülpich, Germany",50.6938699,6.6549936
Erkelenz    Heinsberg    Köln    Nordrhein-Westfalen    Germany,"41812 Erkelenz, Germany",51.0784539,6.315906999999999
Gangelt    Heinsberg    Köln    Nordrhein-Westfalen    Germany,"52538 Gangelt, Germany",50.9927163,5.997431
Geilenkirchen    Heinsberg    Köln    Nordrhein-Westfalen    Germany,"Geilenkirchen, Germany",50.967168,6.117458399999999
Heinsberg    Heinsberg    Köln    Nordrhein-Westfalen    Germany,"52525 Heinsberg, Germany",51.0600381,6.118372900000001
Hückelhoven    Heinsberg    Köln    Nordrhein-Westfalen    Germany,"Hückelhoven, Germany",51.0532772,6.2226357
Selfkant    Heinsberg    Köln    Nordrhein-Westfalen    Germany,"52538 Selfkant, Germany",51.0234207,5.9313655
Übach-Palenberg    Heinsberg    Köln    Nordrhein-Westfalen    Germany,"52531 Übach-Palenberg, Germany",50.919128,6.1186928
Waldfeucht    Heinsberg    Köln    Nordrhein-Westfalen    Germany,"52525 Waldfeucht, Germany",51.065988,5.9883697
Wassenberg    Heinsberg    Köln    Nordrhein-Westfalen    Germany,"41849 Wassenberg, Germany",51.1012901,6.1555425
Wegberg    Heinsberg    Köln    Nordrhein-Westfalen    Germany,"Wegberg, Germany",51.1423399,6.2815922
Bergneustadt    Oberbergischer Kreis    Köln    Nordrhein-Westfalen    Germany,"Bergneustadt, Germany",51.0204769,7.648559499999998
Engelskirchen    Oberbergischer Kreis    Köln    Nordrhein-Westfalen    Germany,"Engelskirchen, Germany",50.9884406,7.415546300000001
Gummersbach    Oberbergischer Kreis    Köln    Nordrhein-Westfalen    Germany,"Gummersbach, Germany",51.0266668,7.569283
Hückeswagen    Oberbergischer Kreis    Köln    Nordrhein-Westfalen    Germany,"42499 Hückeswagen, Germany",51.1490386,7.3293896
Lindlar    Oberbergischer Kreis    Köln    Nordrhein-Westfalen    Germany,"51789 Lindlar, Germany",51.0188593,7.3765504
Marienheide    Oberbergischer Kreis    Köln    Nordrhein-Westfalen    Germany,"51709 Marienheide, Germany",51.0833907,7.5311408
Morsbach    Oberbergischer Kreis    Köln    Nordrhein-Westfalen    Germany,"Morsbach, Germany",50.8665594,7.7267267
Nümbrecht    Oberbergischer Kreis    Köln    Nordrhein-Westfalen    Germany,"Nümbrecht, Germany",50.9039509,7.542011500000001
Radevormwald    Oberbergischer Kreis    Köln    Nordrhein-Westfalen    Germany,"42477 Radevormwald, Germany",51.2015995,7.3590901
Reichshof    Oberbergischer Kreis    Köln    Nordrhein-Westfalen    Germany,"51580 Reichshof, Germany",50.9491612,7.662744
Waldbröl    Oberbergischer Kreis    Köln    Nordrhein-Westfalen    Germany,"Waldbröl, Germany",50.881469,7.6287457
Wiehl    Oberbergischer Kreis    Köln    Nordrhein-Westfalen    Germany,"51674 Wiehl, Germany",50.9487426,7.560884799999999
Wipperfürth    Oberbergischer Kreis    Köln    Nordrhein-Westfalen    Germany,"Wipperfürth, Germany",51.1180108,7.395541700000001
Bergisch Gladbach    Rheinisch-Bergischer Kreis    Köln    Nordrhein-Westfalen    Germany,"Bergisch Gladbach, Germany",50.9923091,7.1286213
Burscheid    Rheinisch-Bergischer Kreis    Köln    Nordrhein-Westfalen    Germany,"Burscheid, Germany",51.085636,7.110593199999999
Kürten    Rheinisch-Bergischer Kreis    Köln    Nordrhein-Westfalen    Germany,"51515 Kürten, Germany",51.0532376,7.2634469
Leichlingen (Rheinland)    Rheinisch-Bergischer Kreis    Köln    Nordrhein-Westfalen    Germany,"Leichlingen, Germany",51.102509,7.0096126
Odenthal    Rheinisch-Bergischer Kreis    Köln    Nordrhein-Westfalen    Germany,"Odenthal, Germany",51.0326615,7.1171485
Overath    Rheinisch-Bergischer Kreis    Köln    Nordrhein-Westfalen    Germany,"Overath, Germany",50.93291989999999,7.282374099999999
Rösrath    Rheinisch-Bergischer Kreis    Köln    Nordrhein-Westfalen    Germany,"51503 Rösrath, Germany",50.9044746,7.183495099999999
Wermelskirchen    Rheinisch-Bergischer Kreis    Köln    Nordrhein-Westfalen    Germany,"Wermelskirchen, Germany",51.1405229,7.220952400000001
Alfter    Rhein-Sieg-Kreis    Köln    Nordrhein-Westfalen    Germany,"53347 Alfter, Germany",50.7380266,7.010702299999999
Bad Honnef    Rhein-Sieg-Kreis    Köln    Nordrhein-Westfalen    Germany,"53604 Bad Honnef, Germany",50.6426173,7.226244599999999
Bornheim    Rhein-Sieg-Kreis    Köln    Nordrhein-Westfalen    Germany,"Bornheim, Germany",50.759586,6.9821412
Eitorf    Rhein-Sieg-Kreis    Köln    Nordrhein-Westfalen    Germany,"53783 Eitorf, Germany",50.7693433,7.451173999999999
Hennef (Sieg)    Rhein-Sieg-Kreis    Köln    Nordrhein-Westfalen    Germany,"Hennef, Germany",50.760274,7.3465066
Königswinter    Rhein-Sieg-Kreis    Köln    Nordrhein-Westfalen    Germany,"53639 Königswinter, Germany",50.69200379999999,7.1861849
Lohmar    Rhein-Sieg-Kreis    Köln    Nordrhein-Westfalen    Germany,"Lohmar, Germany",50.8378015,7.212664900000001
Meckenheim    Rhein-Sieg-Kreis    Köln    Nordrhein-Westfalen    Germany,"53340 Meckenheim, Germany",50.6258878,7.0319507
Much    Rhein-Sieg-Kreis    Köln    Nordrhein-Westfalen    Germany,"Much, Germany",50.90397309999999,7.4022887
Neunkirchen-Seelscheid    Rhein-Sieg-Kreis    Köln    Nordrhein-Westfalen    Germany,"53819 Neunkirchen-Seelscheid, Germany",50.8552827,7.331858599999999
Niederkassel    Rhein-Sieg-Kreis    Köln    Nordrhein-Westfalen    Germany,"Niederkassel, Germany",50.8153036,7.0376711
Rheinbach    Rhein-Sieg-Kreis    Köln    Nordrhein-Westfalen    Germany,"Rheinbach, Germany",50.625307,6.9477005
Ruppichteroth    Rhein-Sieg-Kreis    Köln    Nordrhein-Westfalen    Germany,"Ruppichteroth, Germany",50.8438385,7.483982999999999
Sankt Augustin    Rhein-Sieg-Kreis    Köln    Nordrhein-Westfalen    Germany,"53757 Sankt Augustin, Germany",50.7694775,7.187578599999999
Siegburg    Rhein-Sieg-Kreis    Köln    Nordrhein-Westfalen    Germany,"53721 Siegburg, Germany",50.7998473,7.2074514
Swisttal    Rhein-Sieg-Kreis    Köln    Nordrhein-Westfalen    Germany,"Swisttal, Germany",50.6923636,6.9222034
Troisdorf    Rhein-Sieg-Kreis    Köln    Nordrhein-Westfalen    Germany,"Troisdorf, Germany",50.8177471,7.1430246
Wachtberg    Rhein-Sieg-Kreis    Köln    Nordrhein-Westfalen    Germany,"53343 Wachtberg, Germany",50.6198949,7.0869865
Windeck    Rhein-Sieg-Kreis    Köln    Nordrhein-Westfalen    Germany,"51570 Windeck, Germany",50.7880324,7.565531900000001
Aachen    Städteregion Aachen    Köln    Nordrhein-Westfalen    Germany,"Aachen, Germany",50.7753455,6.083886800000001
Alsdorf    Städteregion Aachen    Köln    Nordrhein-Westfalen    Germany,"52477 Alsdorf, Germany",50.87158849999999,6.164839199999999
Baesweiler    Städteregion Aachen    Köln    Nordrhein-Westfalen    Germany,"52499 Baesweiler, Germany",50.90633649999999,6.1825328
Eschweiler    Städteregion Aachen    Köln    Nordrhein-Westfalen    Germany,"Eschweiler, Germany",50.8107322,6.263075
Herzogenrath    Städteregion Aachen    Köln    Nordrhein-Westfalen    Germany,"52134 Herzogenrath, Germany",50.8649918,6.091241000000001
Monschau    Städteregion Aachen    Köln    Nordrhein-Westfalen    Germany,"52156 Monschau, Germany",50.5563349,6.2426261
Roetgen    Städteregion Aachen    Köln    Nordrhein-Westfalen    Germany,"52159 Roetgen, Germany",50.6460743,6.2002932
Simmerath    Städteregion Aachen    Köln    Nordrhein-Westfalen    Germany,"52152 Simmerath, Germany",50.6061308,6.299229899999999
Stolberg (Rhld.)    Städteregion Aachen    Köln    Nordrhein-Westfalen    Germany,"Stolberg (Rhineland), Germany",50.7730884,6.225193399999999
Würselen    Städteregion Aachen    Köln    Nordrhein-Westfalen    Germany,"52146 Würselen, Germany",50.8216502,6.1320672
Bottrop    Bottrop    Münster    Nordrhein-Westfalen    Germany,"Bottrop, Germany",51.529086,6.9446888
Gelsenkirchen    Gelsenkirchen    Münster    Nordrhein-Westfalen    Germany,"Gelsenkirchen, Germany",51.517744,7.085717199999999
Münster    Münster    Münster    Nordrhein-Westfalen    Germany,"Münster, Germany",51.9606649,7.6261347
Ahaus    Borken    Münster    Nordrhein-Westfalen    Germany,"Ahaus, Germany",52.0825322,7.015005700000001
Bocholt    Borken    Münster    Nordrhein-Westfalen    Germany,"Bocholt, Germany",51.8384277,6.6150917
Borken    Borken    Münster    Nordrhein-Westfalen    Germany,"46325 Borken, Germany",51.84827139999999,6.8594477
Gescher    Borken    Münster    Nordrhein-Westfalen    Germany,"Gescher, Germany",51.9529389,7.0031738
Gronau (Westf.)    Borken    Münster    Nordrhein-Westfalen    Germany,"48599 Gronau, Germany",52.1841199,7.028936099999999
Heek    Borken    Münster    Nordrhein-Westfalen    Germany,"Heek, Germany",52.1176554,7.1025071
Heiden    Borken    Münster    Nordrhein-Westfalen    Germany,"Heiden, Germany",51.8255419,6.9359164
Isselburg    Borken    Münster    Nordrhein-Westfalen    Germany,"46419 Isselburg, Germany",51.8333582,6.4642363
Legden    Borken    Münster    Nordrhein-Westfalen    Germany,"48739 Legden, Germany",52.0327518,7.0997524
Raesfeld    Borken    Münster    Nordrhein-Westfalen    Germany,"Raesfeld, Germany",51.7702593,6.8392979
Reken    Borken    Münster    Nordrhein-Westfalen    Germany,"48734 Reken, Germany",51.8305593,7.044337899999999
Rhede    Borken    Münster    Nordrhein-Westfalen    Germany,"46414 Rhede, Germany",51.8374545,6.6989532
Schöppingen    Borken    Münster    Nordrhein-Westfalen    Germany,"Schöppingen, Germany",52.0934192,7.235982399999998
Stadtlohn    Borken    Münster    Nordrhein-Westfalen    Germany,"48703 Stadtlohn, Germany",51.99209090000001,6.913797199999999
Südlohn    Borken    Münster    Nordrhein-Westfalen    Germany,"Südlohn, Germany",51.9439912,6.8692284
Velen    Borken    Münster    Nordrhein-Westfalen    Germany,"Velen, Germany",51.8943629,6.987700500000001
Vreden    Borken    Münster    Nordrhein-Westfalen    Germany,"48691 Vreden, Germany",52.03539439999999,6.824548699999999
Ascheberg    Coesfeld    Münster    Nordrhein-Westfalen    Germany,"Ascheberg, Germany",51.7896802,7.616662199999999
Billerbeck    Coesfeld    Münster    Nordrhein-Westfalen    Germany,"Billerbeck, Germany",51.9778259,7.2911001
Coesfeld    Coesfeld    Münster    Nordrhein-Westfalen    Germany,"48653 Coesfeld, Germany",51.9382944,7.1675831
Dülmen    Coesfeld    Münster    Nordrhein-Westfalen    Germany,"48249 Dülmen, Germany",51.8316451,7.283492599999999
Havixbeck    Coesfeld    Münster    Nordrhein-Westfalen    Germany,"48329 Havixbeck, Germany",51.9766921,7.4197282
Lüdinghausen    Coesfeld    Münster    Nordrhein-Westfalen    Germany,"Lüdinghausen, Germany",51.768214,7.446561699999999
Nordkirchen    Coesfeld    Münster    Nordrhein-Westfalen    Germany,"59394 Nordkirchen, Germany",51.73851939999999,7.5222188
Nottuln    Coesfeld    Münster    Nordrhein-Westfalen    Germany,"48301 Nottuln, Germany",51.926579,7.354862300000001
Olfen    Coesfeld    Münster    Nordrhein-Westfalen    Germany,"59399 Olfen, Germany",51.70854079999999,7.378074199999999
Rosendahl    Coesfeld    Münster    Nordrhein-Westfalen    Germany,"48720 Rosendahl, Germany",52.0169417,7.209786
Senden    Coesfeld    Münster    Nordrhein-Westfalen    Germany,"48308 Senden, Germany",51.8587626,7.482635699999999
Castrop-Rauxel    Recklinghausen    Münster    Nordrhein-Westfalen    Germany,"Castrop-Rauxel, Germany",51.5632625,7.3150145
Datteln    Recklinghausen    Münster    Nordrhein-Westfalen    Germany,"Datteln, Germany",51.6461362,7.3348301
Dorsten    Recklinghausen    Münster    Nordrhein-Westfalen    Germany,"Dorsten, Germany",51.6559681,6.964260599999999
Gladbeck    Recklinghausen    Münster    Nordrhein-Westfalen    Germany,"Gladbeck, Germany",51.5706624,6.985392099999999
Haltern Am See    Recklinghausen    Münster    Nordrhein-Westfalen    Germany,"45721 Haltern am See, Germany",51.7446414,7.1829794
Herten    Recklinghausen    Münster    Nordrhein-Westfalen    Germany,"Herten, Germany",51.6020534,7.1389575
Marl    Recklinghausen    Münster    Nordrhein-Westfalen    Germany,"Marl, Germany",51.65912340000001,7.1060218
Oer-Erkenschwick    Recklinghausen    Münster    Nordrhein-Westfalen    Germany,"45739 Oer-Erkenschwick, Germany",51.6429599,7.2594914
Recklinghausen    Recklinghausen    Münster    Nordrhein-Westfalen    Germany,"Recklinghausen, Germany",51.6140649,7.1979453
Waltrop    Recklinghausen    Münster    Nordrhein-Westfalen    Germany,"45731 Waltrop, Germany",51.6216271,7.403079699999999
Altenberge    Steinfurt    Münster    Nordrhein-Westfalen    Germany,"48341 Altenberge, Germany",52.0468114,7.4699315
Emsdetten    Steinfurt    Münster    Nordrhein-Westfalen    Germany,"Emsdetten, Germany",52.16818929999999,7.531058
Greven    Steinfurt    Münster    Nordrhein-Westfalen    Germany,"Greven, Germany",52.09651789999999,7.617109999999999
Hörstel    Steinfurt    Münster    Nordrhein-Westfalen    Germany,"48477 Hörstel, Germany",52.2958863,7.5838639
Hopsten    Steinfurt    Münster    Nordrhein-Westfalen    Germany,"Hopsten, Germany",52.3820554,7.6018867
Horstmar    Steinfurt    Münster    Nordrhein-Westfalen    Germany,"Horstmar, Germany",52.080888,7.307896700000001
Ibbenbüren    Steinfurt    Münster    Nordrhein-Westfalen    Germany,"Ibbenbüren, Germany",52.2767721,7.718994700000001
Ladbergen    Steinfurt    Münster    Nordrhein-Westfalen    Germany,"Ladbergen, Germany",52.1376843,7.741188200000001
Laer    Steinfurt    Münster    Nordrhein-Westfalen    Germany,"48366 Laer, Germany",52.05444,7.357084599999999
Lengerich    Steinfurt    Münster    Nordrhein-Westfalen    Germany,"49525 Lengerich, Germany",52.1822998,7.8626385
Lienen    Steinfurt    Münster    Nordrhein-Westfalen    Germany,"Lienen, Germany",52.1454016,7.9739032
Lotte    Steinfurt    Münster    Nordrhein-Westfalen    Germany,"Lotte, Germany",52.2783846,7.9200437
Metelen    Steinfurt    Münster    Nordrhein-Westfalen    Germany,"48629 Metelen, Germany",52.1442264,7.212617400000001
Mettingen    Steinfurt    Münster    Nordrhein-Westfalen    Germany,"Mettingen, Germany",52.3173484,7.782079
Neuenkirchen    Steinfurt    Münster    Nordrhein-Westfalen    Germany,"48485 Neuenkirchen, Germany",52.2394623,7.3714554
Nordwalde    Steinfurt    Münster    Nordrhein-Westfalen    Germany,"Nordwalde, Germany",52.0830055,7.4748243
Ochtrup    Steinfurt    Münster    Nordrhein-Westfalen    Germany,"48607 Ochtrup, Germany",52.2056952,7.1876491
Recke    Steinfurt    Münster    Nordrhein-Westfalen    Germany,"Recke, Germany",52.3710519,7.718998899999999
Rheine    Steinfurt    Münster    Nordrhein-Westfalen    Germany,"Rheine, Germany",52.2815691,7.443409200000001
Saerbeck    Steinfurt    Münster    Nordrhein-Westfalen    Germany,"Saerbeck, Germany",52.1747613,7.6313899
Steinfurt    Steinfurt    Münster    Nordrhein-Westfalen    Germany,"48565 Steinfurt, Germany",52.1445658,7.333463600000001
Tecklenburg    Steinfurt    Münster    Nordrhein-Westfalen    Germany,"49545 Tecklenburg, Germany",52.2203039,7.812363299999999
Westerkappeln    Steinfurt    Münster    Nordrhein-Westfalen    Germany,"48496 Westerkappeln, Germany",52.38055600000001,7.6
Wettringen    Steinfurt    Münster    Nordrhein-Westfalen    Germany,"Wettringen, Germany",52.20855599999999,7.317988999999999
Ahlen    Warendorf    Münster    Nordrhein-Westfalen    Germany,"Ahlen, Germany",51.7600942,7.8973228
Beckum    Warendorf    Münster    Nordrhein-Westfalen    Germany,"59269 Beckum, Germany",51.7561792,8.0425504
Beelen    Warendorf    Münster    Nordrhein-Westfalen    Germany,"Beelen, Germany",51.9296777,8.1130748
Drensteinfurt    Warendorf    Münster    Nordrhein-Westfalen    Germany,"Drensteinfurt, Germany",51.7941523,7.7354791
Ennigerloh    Warendorf    Münster    Nordrhein-Westfalen    Germany,"Ennigerloh, Germany",51.8402587,8.0308796
Everswinkel    Warendorf    Münster    Nordrhein-Westfalen    Germany,"48351 Everswinkel, Germany",51.9246665,7.848896399999999
Oelde    Warendorf    Münster    Nordrhein-Westfalen    Germany,"Oelde, Germany",51.8297412,8.1463962
Ostbevern    Warendorf    Münster    Nordrhein-Westfalen    Germany,"48346 Ostbevern, Germany",52.0392702,7.8421105
Sassenberg    Warendorf    Münster    Nordrhein-Westfalen    Germany,"Sassenberg, Germany",51.9929908,8.0443707
Sendenhorst    Warendorf    Münster    Nordrhein-Westfalen    Germany,"Sendenhorst, Germany",51.844112,7.831945099999999
Telgte    Warendorf    Münster    Nordrhein-Westfalen    Germany,"Telgte, Germany",51.9826122,7.7837602
Wadersloh    Warendorf    Münster    Nordrhein-Westfalen    Germany,"Wadersloh, Germany",51.73825590000001,8.2506241
Warendorf    Warendorf    Münster    Nordrhein-Westfalen    Germany,"48231 Warendorf, Germany",51.9538685,7.9908987
Bielefeld    Bielefeld    Detmold    Nordrhein-Westfalen    Germany,"Bielefeld, Germany",52.0302285,8.532470800000002
Borgholzhausen    Gütersloh    Detmold    Nordrhein-Westfalen    Germany,"33829 Borgholzhausen, Germany",52.10139299999999,8.3023338
Gütersloh    Gütersloh    Detmold    Nordrhein-Westfalen    Germany,"Gütersloh, Germany",51.9032375,8.385753500000002
Halle (Westf.)    Gütersloh    Detmold    Nordrhein-Westfalen    Germany,"Halle, Germany",52.05889790000001,8.3597982
Harsewinkel    Gütersloh    Detmold    Nordrhein-Westfalen    Germany,"33428 Harsewinkel, Germany",51.96428179999999,8.2333679
Herzebrock-Clarholz    Gütersloh    Detmold    Nordrhein-Westfalen    Germany,"Herzebrock-Clarholz, Germany",51.88438590000001,8.2179906
Langenberg    Gütersloh    Detmold    Nordrhein-Westfalen    Germany,"Langenberg, Germany",51.77103409999999,8.3172377
Rheda-Wiedenbrück    Gütersloh    Detmold    Nordrhein-Westfalen    Germany,"Rheda-Wiedenbrück, Germany",51.8458575,8.299742499999999
Rietberg    Gütersloh    Detmold    Nordrhein-Westfalen    Germany,"33397 County of Rietberg, Germany",51.8167441,8.434179000000002
Schloß Holte-Stukenbrock    Gütersloh    Detmold    Nordrhein-Westfalen    Germany,"Schloß Holte-Stukenbrock, Germany",51.88311539999999,8.661740199999999
Steinhagen    Gütersloh    Detmold    Nordrhein-Westfalen    Germany,"33803 Steinhagen, Germany",52.0049441,8.415113
Verl    Gütersloh    Detmold    Nordrhein-Westfalen    Germany,"33415 Verl, Germany",51.8819448,8.5061035
Versmold    Gütersloh    Detmold    Nordrhein-Westfalen    Germany,"Versmold, Germany",52.0412371,8.1484011
Werther (Westf.)    Gütersloh    Detmold    Nordrhein-Westfalen    Germany,"Werther, Germany",52.0738784,8.4147863
Bünde    Herford    Detmold    Nordrhein-Westfalen    Germany,"Bünde, Germany",52.1982222,8.5832333
Enger    Herford    Detmold    Nordrhein-Westfalen    Germany,"32130 Enger, Germany",52.1394002,8.5582762
Herford    Herford    Detmold    Nordrhein-Westfalen    Germany,"Herford, Germany",52.1178305,8.679399799999999
Hiddenhausen    Herford    Detmold    Nordrhein-Westfalen    Germany,"32120 Hiddenhausen, Germany",52.1687458,8.6256519
Kirchlengern    Herford    Detmold    Nordrhein-Westfalen    Germany,"Kirchlengern, Germany",52.2015719,8.6379173
Löhne    Herford    Detmold    Nordrhein-Westfalen    Germany,"32584 Löhne, Germany",52.1941419,8.7220862
Rödinghausen    Herford    Detmold    Nordrhein-Westfalen    Germany,"32289 Rödinghausen, Germany",52.25466729999999,8.4829099
Spenge    Herford    Detmold    Nordrhein-Westfalen    Germany,"32139 Spenge, Germany",52.1368374,8.4868115
Vlotho    Herford    Detmold    Nordrhein-Westfalen    Germany,"Vlotho, Germany",52.1605973,8.8560945
Bad Driburg    Höxter    Detmold    Nordrhein-Westfalen    Germany,"33014 Bad Driburg, Germany",51.7328389,9.021547700000001
Beverungen    Höxter    Detmold    Nordrhein-Westfalen    Germany,"Beverungen, Germany",51.6684529,9.3722807
Borgentreich    Höxter    Detmold    Nordrhein-Westfalen    Germany,"Borgentreich, Germany",51.5707506,9.238308800000002
Brakel    Höxter    Detmold    Nordrhein-Westfalen    Germany,"33034 Brakel, Germany",51.7174281,9.1826223
Höxter    Höxter    Detmold    Nordrhein-Westfalen    Germany,"Höxter, Germany",51.7774678,9.3771214
Marienmünster    Höxter    Detmold    Nordrhein-Westfalen    Germany,"Marienmünster, Germany",51.8179163,9.2307078
Nieheim    Höxter    Detmold    Nordrhein-Westfalen    Germany,"Nieheim, Germany",51.805392,9.1171172
Steinheim    Höxter    Detmold    Nordrhein-Westfalen    Germany,"32839 Steinheim, Germany",51.8697655,9.0863893
Warburg    Höxter    Detmold    Nordrhein-Westfalen    Germany,"Warburg, Germany",51.4899078,9.14519
Willebadessen    Höxter    Detmold    Nordrhein-Westfalen    Germany,"34439 Willebadessen, Germany",51.6245361,9.0295129
Augustdorf    Lippe    Detmold    Nordrhein-Westfalen    Germany,"Augustdorf, Germany",51.9092396,8.7436403
Bad Salzuflen    Lippe    Detmold    Nordrhein-Westfalen    Germany,"Bad Salzuflen, Germany",52.0765185,8.755621999999999
Barntrup    Lippe    Detmold    Nordrhein-Westfalen    Germany,"32683 Barntrup, Germany",51.9912857,9.1211764
Blomberg    Lippe    Detmold    Nordrhein-Westfalen    Germany,"Blomberg, Germany",51.9412112,9.0985749
Detmold    Lippe    Detmold    Nordrhein-Westfalen    Germany,"Detmold, Germany",51.9384783,8.868637999999999
Dörentrup    Lippe    Detmold    Nordrhein-Westfalen    Germany,"Dörentrup, Germany",52.0406712,9.002389299999999
Extertal    Lippe    Detmold    Nordrhein-Westfalen    Germany,"Extertal, Germany",52.0684043,9.103542899999999
Horn-Bad Meinberg    Lippe    Detmold    Nordrhein-Westfalen    Germany,"32805 Horn-Bad Meinberg, Germany",51.8751511,8.9481431
Kalletal    Lippe    Detmold    Nordrhein-Westfalen    Germany,"Kalletal, Germany",52.1067915,8.9481355
Lage    Lippe    Detmold    Nordrhein-Westfalen    Germany,"Lippe, Germany",51.9759031,8.9865279
Lemgo    Lippe    Detmold    Nordrhein-Westfalen    Germany,"Lemgo, Germany",52.0266732,8.9018625
Leopoldshöhe    Lippe    Detmold    Nordrhein-Westfalen    Germany,"33818 Leopoldshöhe, Germany",52.0130537,8.697266599999999
Lügde    Lippe    Detmold    Nordrhein-Westfalen    Germany,"Lügde, Germany",51.9606234,9.2486211
Oerlinghausen    Lippe    Detmold    Nordrhein-Westfalen    Germany,"33813 Oerlinghausen, Germany",51.951983,8.663472300000002
Schieder-Schwalenberg    Lippe    Detmold    Nordrhein-Westfalen    Germany,"32816 Schieder-Schwalenberg, Germany",51.9078703,9.175959599999999
Schlangen    Lippe    Detmold    Nordrhein-Westfalen    Germany,"33189 Schlangen, Germany",51.8078091,8.837571100000002
Bad Oeynhausen    Minden-Lübbecke    Detmold    Nordrhein-Westfalen    Germany,"Bad Oeynhausen, Germany",52.2084623,8.8009706
Espelkamp    Minden-Lübbecke    Detmold    Nordrhein-Westfalen    Germany,"Espelkamp, Germany",52.3814709,8.620970699999999
Hille    Minden-Lübbecke    Detmold    Nordrhein-Westfalen    Germany,"32479 Hille, Germany",52.32206799999999,8.7847967
Hüllhorst    Minden-Lübbecke    Detmold    Nordrhein-Westfalen    Germany,"32609 Hüllhorst, Germany",52.2701609,8.67466
Lübbecke    Minden-Lübbecke    Detmold    Nordrhein-Westfalen    Germany,"Lübbecke, Germany",52.3097404,8.6223098
Minden    Minden-Lübbecke    Detmold    Nordrhein-Westfalen    Germany,"Minden, Germany",52.2964919,8.894920599999999
Petershagen    Minden-Lübbecke    Detmold    Nordrhein-Westfalen    Germany,"32469 Petershagen, Germany",52.3745951,8.9648938
Porta Westfalica    Minden-Lübbecke    Detmold    Nordrhein-Westfalen    Germany,"32457 Porta Westfalica, Germany",52.2408765,8.9246652
Preußisch Oldendorf    Minden-Lübbecke    Detmold    Nordrhein-Westfalen    Germany,"Preußisch Oldendorf, Germany",52.3059095,8.489118999999999
Rahden    Minden-Lübbecke    Detmold    Nordrhein-Westfalen    Germany,"32369 Rahden, Germany",52.4357364,8.6159777
Stemwede    Minden-Lübbecke    Detmold    Nordrhein-Westfalen    Germany,"32351 Stemwede, Germany",52.4204498,8.476663499999999
Altenbeken    Paderborn    Detmold    Nordrhein-Westfalen    Germany,"33184 Altenbeken, Germany",51.76152769999999,8.9452803
Bad Lippspringe    Paderborn    Detmold    Nordrhein-Westfalen    Germany,"Bad Lippspringe, Germany",51.7837494,8.8159083
Borchen    Paderborn    Detmold    Nordrhein-Westfalen    Germany,"Borchen, Germany",51.6659316,8.7276375
Büren    Paderborn    Detmold    Nordrhein-Westfalen    Germany,"33142 Büren, Germany",51.55092,8.5597678
Delbrück    Paderborn    Detmold    Nordrhein-Westfalen    Germany,"33129 Delbrück, Germany",51.7650575,8.5620753
Hövelhof    Paderborn    Detmold    Nordrhein-Westfalen    Germany,"33161 Hövelhof, Germany",51.8236354,8.656267999999999
Lichtenau    Paderborn    Detmold    Nordrhein-Westfalen    Germany,"Lichtenau, Germany",51.6165767,8.895116600000001
Paderborn    Paderborn    Detmold    Nordrhein-Westfalen    Germany,"Paderborn, Germany",51.7189205,8.757509299999999
Salzkotten    Paderborn    Detmold    Nordrhein-Westfalen    Germany,"33154 Salzkotten, Germany",51.6669541,8.6010709
Bad Wünnenberg    Paderborn    Detmold    Nordrhein-Westfalen    Germany,"33181 Bad Wünnenberg, Germany",51.5171339,8.6988832
Bochum    Bochum    Arnsberg    Nordrhein-Westfalen    Germany,"Bochum, Germany",51.4818445,7.216236299999999
Dortmund    Dortmund    Arnsberg    Nordrhein-Westfalen    Germany,"Dortmund, Germany",51.5135872,7.465298100000001
Hagen    Hagen    Arnsberg    Nordrhein-Westfalen    Germany,"Hagen, Germany",51.3670777,7.4632841
Hamm    Hamm    Arnsberg    Nordrhein-Westfalen    Germany,"Hamm, Germany",51.6738583,7.815981600000001
Herne    Herne    Arnsberg    Nordrhein-Westfalen    Germany,"Herne, Germany",51.5368948,7.200914699999999
Breckerfeld    Ennepe-Ruhr-Kreis    Arnsberg    Nordrhein-Westfalen    Germany,"Breckerfeld, Germany",51.2603577,7.4679502
Ennepetal    Ennepe-Ruhr-Kreis    Arnsberg    Nordrhein-Westfalen    Germany,"58256 Ennepetal, Germany",51.30010919999999,7.361342899999999
Gevelsberg    Ennepe-Ruhr-Kreis    Arnsberg    Nordrhein-Westfalen    Germany,"58285 Gevelsberg, Germany",51.3221284,7.338331999999999
Hattingen    Ennepe-Ruhr-Kreis    Arnsberg    Nordrhein-Westfalen    Germany,"Hattingen, Germany",51.4018117,7.1911567
Herdecke    Ennepe-Ruhr-Kreis    Arnsberg    Nordrhein-Westfalen    Germany,"Herdecke, Germany",51.4031667,7.4328376
Schwelm    Ennepe-Ruhr-Kreis    Arnsberg    Nordrhein-Westfalen    Germany,"Schwelm, Germany",51.2882674,7.291086
Sprockhövel    Ennepe-Ruhr-Kreis    Arnsberg    Nordrhein-Westfalen    Germany,"Sprockhövel, Germany",51.3639672,7.246912900000001
Wetter (Ruhr)    Ennepe-Ruhr-Kreis    Arnsberg    Nordrhein-Westfalen    Germany,"58300 Wetter, Germany",51.3860225,7.3914998
Witten    Ennepe-Ruhr-Kreis    Arnsberg    Nordrhein-Westfalen    Germany,"Witten, Germany",51.4438926,7.353197000000001
Arnsberg    Hochsauerlandkreis    Arnsberg    Nordrhein-Westfalen    Germany,"Arnsberg, Germany",51.4073375,8.052771
Bestwig    Hochsauerlandkreis    Arnsberg    Nordrhein-Westfalen    Germany,"59909 Bestwig, Germany",51.3619591,8.401328099999999
Brilon    Hochsauerlandkreis    Arnsberg    Nordrhein-Westfalen    Germany,"59929 Brilon, Germany",51.3982179,8.5749432
Eslohe (Sauerland)    Hochsauerlandkreis    Arnsberg    Nordrhein-Westfalen    Germany,"Eslohe, Germany",51.2541269,8.169604999999999
Hallenberg    Hochsauerlandkreis    Arnsberg    Nordrhein-Westfalen    Germany,"59969 Hallenberg, Germany",51.1126638,8.6195751
Marsberg    Hochsauerlandkreis    Arnsberg    Nordrhein-Westfalen    Germany,"34431 Marsberg, Germany",51.4575281,8.8474574
Medebach    Hochsauerlandkreis    Arnsberg    Nordrhein-Westfalen    Germany,"59964 Medebach, Germany",51.200192,8.7003377
Meschede    Hochsauerlandkreis    Arnsberg    Nordrhein-Westfalen    Germany,"Meschede, Germany",51.3511245,8.2851304
Olsberg    Hochsauerlandkreis    Arnsberg    Nordrhein-Westfalen    Germany,"Olsberg, Germany",51.3556649,8.4801828
Schmallenberg    Hochsauerlandkreis    Arnsberg    Nordrhein-Westfalen    Germany,"57392 Schmallenberg, Germany",51.1526332,8.290790099999999
Sundern (Sauerland)    Hochsauerlandkreis    Arnsberg    Nordrhein-Westfalen    Germany,"Sundern, Germany",51.3254213,8.0035148
Winterberg    Hochsauerlandkreis    Arnsberg    Nordrhein-Westfalen    Germany,"59955 Winterberg, Germany",51.19353779999999,8.5275766
Altena    Märkischer Kreis    Arnsberg    Nordrhein-Westfalen    Germany,"Altena, Germany",51.3015239,7.671438699999999
Balve    Märkischer Kreis    Arnsberg    Nordrhein-Westfalen    Germany,"Balve, Germany",51.3309319,7.8646236
Halver    Märkischer Kreis    Arnsberg    Nordrhein-Westfalen    Germany,"58553 Halver, Germany",51.1886251,7.499215
Hemer    Märkischer Kreis    Arnsberg    Nordrhein-Westfalen    Germany,"Hemer, Germany",51.3829741,7.7742862
Herscheid    Märkischer Kreis    Arnsberg    Nordrhein-Westfalen    Germany,"Herscheid, Germany",51.17654,7.7480527
Iserlohn    Märkischer Kreis    Arnsberg    Nordrhein-Westfalen    Germany,"Iserlohn, Germany",51.3765096,7.6960842
Kierspe    Märkischer Kreis    Arnsberg    Nordrhein-Westfalen    Germany,"Kierspe, Germany",51.130264,7.5988644
Lüdenscheid    Märkischer Kreis    Arnsberg    Nordrhein-Westfalen    Germany,"Lüdenscheid, Germany",51.2191038,7.631259999999999
Meinerzhagen    Märkischer Kreis    Arnsberg    Nordrhein-Westfalen    Germany,"58540 Meinerzhagen, Germany",51.1052543,7.650938399999999
Menden (Sauerland)    Märkischer Kreis    Arnsberg    Nordrhein-Westfalen    Germany,"Menden, Germany",51.4377453,7.7953337
Nachrodt-Wiblingwerde    Märkischer Kreis    Arnsberg    Nordrhein-Westfalen    Germany,"Nachrodt-Wiblingwerde, Germany",51.3119757,7.6193876
Neuenrade    Märkischer Kreis    Arnsberg    Nordrhein-Westfalen    Germany,"58809 Neuenrade, Germany",51.2847342,7.795036899999999
Plettenberg    Märkischer Kreis    Arnsberg    Nordrhein-Westfalen    Germany,"Plettenberg, Germany",51.209623,7.8701794
Schalksmühle    Märkischer Kreis    Arnsberg    Nordrhein-Westfalen    Germany,"Schalksmühle, Germany",51.24272449999999,7.523596700000001
Werdohl    Märkischer Kreis    Arnsberg    Nordrhein-Westfalen    Germany,"Werdohl, Germany",51.2573883,7.7706271
Attendorn    Olpe    Arnsberg    Nordrhein-Westfalen    Germany,"57439 Attendorn, Germany",51.1313927,7.904944299999999
Drolshagen    Olpe    Arnsberg    Nordrhein-Westfalen    Germany,"Drolshagen, Germany",51.0244556,7.770630199999999
Finnentrop    Olpe    Arnsberg    Nordrhein-Westfalen    Germany,"57413 Finnentrop, Germany",51.17360910000001,7.9739149
Kirchhundem    Olpe    Arnsberg    Nordrhein-Westfalen    Germany,"57399 Kirchhundem, Germany",51.0865154,8.089385499999999
Lennestadt    Olpe    Arnsberg    Nordrhein-Westfalen    Germany,"Lennestadt, Germany",51.1037833,8.0733266
Olpe    Olpe    Arnsberg    Nordrhein-Westfalen    Germany,"57462 Olpe, Germany",51.0282107,7.8502943
Wenden    Olpe    Arnsberg    Nordrhein-Westfalen    Germany,"Wenden, Germany",50.9716418,7.8665433
Bad Berleburg    Siegen-Wittgenstein    Arnsberg    Nordrhein-Westfalen    Germany,"57319 Bad Berleburg, Germany",51.0515666,8.3926278
Burbach    Siegen-Wittgenstein    Arnsberg    Nordrhein-Westfalen    Germany,"Burbach, Germany",50.7455764,8.0803107
Erndtebrück    Siegen-Wittgenstein    Arnsberg    Nordrhein-Westfalen    Germany,"Erndtebrück, Germany",50.9891483,8.254518
Freudenberg    Siegen-Wittgenstein    Arnsberg    Nordrhein-Westfalen    Germany,"57258 Freudenberg, Germany",50.9041091,7.8780782
Hilchenbach    Siegen-Wittgenstein    Arnsberg    Nordrhein-Westfalen    Germany,"Hilchenbach, Germany",50.9967407,8.1111636
Kreuztal    Siegen-Wittgenstein    Arnsberg    Nordrhein-Westfalen    Germany,"Kreuztal, Germany",50.9693854,7.9923572
Bad Laasphe    Siegen-Wittgenstein    Arnsberg    Nordrhein-Westfalen    Germany,"57334 Bad Laasphe, Germany",50.9279488,8.4194979
Netphen    Siegen-Wittgenstein    Arnsberg    Nordrhein-Westfalen    Germany,"57250 Netphen, Germany",50.9150588,8.1072664
Neunkirchen    Siegen-Wittgenstein    Arnsberg    Nordrhein-Westfalen    Germany,"Neunkirchen, Germany",50.7870784,8.006369099999999
Siegen    Siegen-Wittgenstein    Arnsberg    Nordrhein-Westfalen    Germany,"Siegen, Germany",50.8838492,8.020959099999999
Wilnsdorf    Siegen-Wittgenstein    Arnsberg    Nordrhein-Westfalen    Germany,"57234 Wilnsdorf, Germany",50.8158706,8.1043471
Anröchte    Soest    Arnsberg    Nordrhein-Westfalen    Germany,"Anröchte, Germany",51.5622033,8.3256218
Bad Sassendorf    Soest    Arnsberg    Nordrhein-Westfalen    Germany,"Bad Sassendorf, Germany",51.5885975,8.1707214
Ense    Soest    Arnsberg    Nordrhein-Westfalen    Germany,"59469 Ense, Germany",51.5078471,7.9683377
Erwitte    Soest    Arnsberg    Nordrhein-Westfalen    Germany,"Erwitte, Germany",51.6061592,8.3403362
Geseke    Soest    Arnsberg    Nordrhein-Westfalen    Germany,"59590 Geseke, Germany",51.6393693,8.5067607
Lippetal    Soest    Arnsberg    Nordrhein-Westfalen    Germany,"Lippetal, Germany",51.6636877,8.1443208
Lippstadt    Soest    Arnsberg    Nordrhein-Westfalen    Germany,"Lippstadt, Germany",51.6712278,8.3406481
Möhnesee    Soest    Arnsberg    Nordrhein-Westfalen    Germany,"59519 Möhnesee, Germany",51.47602999999999,8.123169899999999
Rüthen    Soest    Arnsberg    Nordrhein-Westfalen    Germany,"59602 Rüthen, Germany",51.4925198,8.4369936
Soest    Soest    Arnsberg    Nordrhein-Westfalen    Germany,"Soest, Germany",51.5711476,8.105754
Warstein    Soest    Arnsberg    Nordrhein-Westfalen    Germany,"59581 Warstein, Germany",51.4491749,8.3557715
Welver    Soest    Arnsberg    Nordrhein-Westfalen    Germany,"Welver, Germany",51.6175478,7.956436799999999
Werl    Soest    Arnsberg    Nordrhein-Westfalen    Germany,"Werl, Germany",51.5583773,7.9114426
Wickede (Ruhr)    Soest    Arnsberg    Nordrhein-Westfalen    Germany,"Wickede, Germany",51.499084,7.863498700000001
Bergkamen    Unna    Arnsberg    Nordrhein-Westfalen    Germany,"59192 Bergkamen, Germany",51.6158082,7.6429742
Bönen    Unna    Arnsberg    Nordrhein-Westfalen    Germany,"Bönen, Germany",51.5986987,7.758582
Fröndenberg    Unna    Arnsberg    Nordrhein-Westfalen    Germany,"58730 Fröndenberg, Germany",51.501482,7.7484309
Holzwickede    Unna    Arnsberg    Nordrhein-Westfalen    Germany,"Holzwickede, Germany",51.4998482,7.6209355
Kamen    Unna    Arnsberg    Nordrhein-Westfalen    Germany,"Kamen, Germany",51.5882752,7.6590458
Lünen    Unna    Arnsberg    Nordrhein-Westfalen    Germany,"Lünen, Germany",51.6104829,7.5285074
Schwerte    Unna    Arnsberg    Nordrhein-Westfalen    Germany,"Schwerte, Germany",51.4289295,7.565631499999999
Selm    Unna    Arnsberg    Nordrhein-Westfalen    Germany,"Selm, Germany",51.6957181,7.467608999999999
Unna    Unna    Arnsberg    Nordrhein-Westfalen    Germany,"Unna, Germany",51.5426349,7.685311400000001
Werne    Unna    Arnsberg    Nordrhein-Westfalen    Germany,"59368 Werne, Germany",51.665041,7.631431000000001
Koblenz    Koblenz    Koblenz    Rheinland-Pfalz    Germany,"Koblenz, Germany",50.3569429,7.5889959
Adenau    Ahrweiler    Koblenz    Rheinland-Pfalz    Germany,"Nürburgring Nordschleife, 53518 Adenau, Germany",50.3779967,6.950339899999999
Berg    Ahrweiler    Koblenz    Rheinland-Pfalz    Germany,"Bergstraße, 53520 Kaltenborn, Germany",50.3894493,7.030113699999999
Brohl-Lützing    Ahrweiler    Koblenz    Rheinland-Pfalz    Germany,"Brohltalstraße, 56656 Brohl-Lützing, Germany",50.4797571,7.328401400000001
Herschbroich    Ahrweiler    Koblenz    Rheinland-Pfalz    Germany,"Herschbroicher Str., 53518 Adenau, Germany",50.37052019999999,6.9557904
Nürburg    Ahrweiler    Koblenz    Rheinland-Pfalz    Germany,"Nürburgring Nordschleife, 53518 Adenau, Germany",50.3779967,6.950339899999999
Quiddelbach    Ahrweiler    Koblenz    Rheinland-Pfalz    Germany,"Quiddelbacher Höhe, 53518 Quiddelbach, Germany",50.3441375,6.927703699999999
Remagen    Ahrweiler    Koblenz    Rheinland-Pfalz    Germany,"Joseph-Rovan-Allee 2, 53424 Remagen, Germany",50.57267,7.253439999999999
Burgbrohl    Ahrweiler    Koblenz    Rheinland-Pfalz    Germany,"Burgbrohler Str., 56653 Glees, Germany",50.4352746,7.2454052
Galenberg    Ahrweiler    Koblenz    Rheinland-Pfalz    Germany,"Galenberger Weg, 56653 Wehr, Germany",50.4254798,7.205124799999999
Spessart    Ahrweiler    Koblenz    Rheinland-Pfalz    Germany,"Gewerbegebiet Kempenich und Spessart, 56746, Germany",50.43147769999999,7.1165598
Wassenach    Ahrweiler    Koblenz    Rheinland-Pfalz    Germany,"Wassenacher Str., 56653 Glees, Germany",50.4331703,7.2453954
Kempenich    Ahrweiler    Koblenz    Rheinland-Pfalz    Germany,"Kempenicher Str., 56746 Spessart, Germany",50.4381393,7.116103799999999
Betzdorf    Altenkirchen (Westerwald)    Koblenz    Rheinland-Pfalz    Germany,"Höferstraße 8, 57518 Betzdorf, Germany",50.78818,7.86802
Mittelhof    Altenkirchen (Westerwald)    Koblenz    Rheinland-Pfalz    Germany,"Koblenz-Olper-Straße, 57548 Kirchen (Sieg), Germany",50.8220002,7.856687799999999
Hövels    Altenkirchen (Westerwald)    Koblenz    Rheinland-Pfalz    Germany,"Koblenz-Olper-Straße, 57548 Kirchen (Sieg), Germany",50.8220002,7.856687799999999
Kirchen (Sieg)    Altenkirchen (Westerwald)    Koblenz    Rheinland-Pfalz    Germany,"Koblenz-Olper-Straße, 57548 Kirchen (Sieg), Germany",50.8220002,7.856687799999999
Niederfischbach    Altenkirchen (Westerwald)    Koblenz    Rheinland-Pfalz    Germany,"Koblenz-Olper-Straße, 57548 Kirchen (Sieg), Germany",50.8220002,7.856687799999999
Katzwinkel (Sieg)    Altenkirchen (Westerwald)    Koblenz    Rheinland-Pfalz    Germany,"Koblenz-Olper-Straße, 57548 Kirchen (Sieg), Germany",50.8220002,7.856687799999999
Scheuerfeld    Altenkirchen (Westerwald)    Koblenz    Rheinland-Pfalz    Germany,"Koblenz-Olper-Straße, 57548 Kirchen (Sieg), Germany",50.8220002,7.856687799999999
Wallmenroth    Altenkirchen (Westerwald)    Koblenz    Rheinland-Pfalz    Germany,"Koblenz-Olper-Straße, 57548 Kirchen (Sieg), Germany",50.8220002,7.856687799999999
Altenkirchen (Westerwald)    Altenkirchen (Westerwald)    Koblenz    Rheinland-Pfalz    Germany,"Wiedstraße 9, 57610 Altenkirchen (Westerwald), Germany",50.68577,7.63714
Auen    Bad Kreuznach    Koblenz    Rheinland-Pfalz    Germany,"Rübenacher Str. 114a, 56072 Koblenz, Germany",50.37039960000001,7.551680699999999
Bad Kreuznach    Bad Kreuznach    Koblenz    Rheinland-Pfalz    Germany,"Rübenacher Str. 114a, 56072 Koblenz, Germany",50.37039960000001,7.551680699999999
